{
  "seedVersion": 1,
  "generatedAtEpochMillis": 1776501938392,
  "origin": {
    "label": "Gangnam Station Exit 2",
    "latitude": 37.497927,
    "longitude": 127.027583
  },
  "queries": [
    {
      "radiusMeters": 3000,
      "fuelType": "GASOLINE",
      "stations": [
        {
          "stationId": "A0009907",
          "brandCode": "GSC",
          "name": "에너지플러스허브 삼방주유소",
          "priceWon": 2028,
          "latitude": 37.5038592059364,
          "longitude": 127.02317419164872
        },
        {
          "stationId": "A0010207",
          "brandCode": "SKE",
          "name": "SK서광주유소",
          "priceWon": 2040,
          "latitude": 37.494342850844376,
          "longitude": 127.03509278513955
        },
        {
          "stationId": "A0009905",
          "brandCode": "HDO",
          "name": "HD현대오일뱅크㈜직영 사평로주유소",
          "priceWon": 2006,
          "latitude": 37.50327593007212,
          "longitude": 127.02150768091882
        },
        {
          "stationId": "A0009913",
          "brandCode": "HDO",
          "name": "HD현대오일뱅크㈜직영 서초제일주유소",
          "priceWon": 2006,
          "latitude": 37.490559553508156,
          "longitude": 127.02260855568565
        },
        {
          "stationId": "A0009974",
          "brandCode": "GSC",
          "name": "지에스칼텍스㈜에너지플러스허브GS타워",
          "priceWon": 2028,
          "latitude": 37.50270179217919,
          "longitude": 127.03639187283768
        },
        {
          "stationId": "A0009061",
          "brandCode": "SOL",
          "name": "(주)선진도곡주유소",
          "priceWon": 2049,
          "latitude": 37.491199740537226,
          "longitude": 127.03749885029286
        },
        {
          "stationId": "A0009861",
          "brandCode": "SOL",
          "name": "오토테크주유소",
          "priceWon": 1991,
          "latitude": 37.48667479908557,
          "longitude": 127.02279401173456
        },
        {
          "stationId": "A0010236",
          "brandCode": "HDO",
          "name": "HD현대오일뱅크㈜직영 강남셀프주유소",
          "priceWon": 2009,
          "latitude": 37.49241175075716,
          "longitude": 127.04191650438408
        },
        {
          "stationId": "A0010269",
          "brandCode": "SOL",
          "name": "극동유화㈜ 개나리주유소",
          "priceWon": 2029,
          "latitude": 37.500922685879075,
          "longitude": 127.04311957576475
        },
        {
          "stationId": "A0006039",
          "brandCode": "SKE",
          "name": "(유)동하석유 힐탑셀프주유소",
          "priceWon": 2125,
          "latitude": 37.510737202013864,
          "longitude": 127.03273294779221
        },
        {
          "stationId": "A0000866",
          "brandCode": "GSC",
          "name": "반포그린주유소",
          "priceWon": 1995,
          "latitude": 37.503248089822094,
          "longitude": 127.01086975326696
        },
        {
          "stationId": "A0010232",
          "brandCode": "SOL",
          "name": "명품주유소",
          "priceWon": 2348,
          "latitude": 37.49409746137876,
          "longitude": 127.0456260865488
        },
        {
          "stationId": "A0009835",
          "brandCode": "SKE",
          "name": "오일프러스 셀프",
          "priceWon": 1978,
          "latitude": 37.48583639237537,
          "longitude": 127.03968545153442
        },
        {
          "stationId": "A0009869",
          "brandCode": "GSC",
          "name": "말죽거리주유소",
          "priceWon": 1996,
          "latitude": 37.48519480533853,
          "longitude": 127.04083944373005
        },
        {
          "stationId": "A0009917",
          "brandCode": "SKE",
          "name": "대신석유㈜서원주유소",
          "priceWon": 2098,
          "latitude": 37.49263818433361,
          "longitude": 127.00759237474401
        },
        {
          "stationId": "A0009901",
          "brandCode": "GSC",
          "name": "대성석유(주)연일주유소",
          "priceWon": 1996,
          "latitude": 37.48257930321935,
          "longitude": 127.01852201969501
        },
        {
          "stationId": "A0000915",
          "brandCode": "GSC",
          "name": "대성산업(주)직영 터미널(고속)주유소",
          "priceWon": 2013,
          "latitude": 37.50673138408668,
          "longitude": 127.0088196870799
        },
        {
          "stationId": "A0009738",
          "brandCode": "HDO",
          "name": "HD현대오일뱅크㈜직영 도곡셀프주유소",
          "priceWon": 2009,
          "latitude": 37.485461311680915,
          "longitude": 127.04321476202395
        },
        {
          "stationId": "A0009912",
          "brandCode": "GSC",
          "name": "(주)한미석유 서초주유소",
          "priceWon": 1995,
          "latitude": 37.48613464972351,
          "longitude": 127.01081362695857
        },
        {
          "stationId": "A0009890",
          "brandCode": "GSC",
          "name": "서초꽃마을주유소",
          "priceWon": 1995,
          "latitude": 37.486527793706955,
          "longitude": 127.00992555707809
        },
        {
          "stationId": "A0010229",
          "brandCode": "HDO",
          "name": "HD현대오일뱅크㈜직영 유진주유소",
          "priceWon": 2006,
          "latitude": 37.48325059688775,
          "longitude": 127.04267263037549
        },
        {
          "stationId": "A0000908",
          "brandCode": "GSC",
          "name": "지에스칼텍스(주)남서울주유소",
          "priceWon": 2038,
          "latitude": 37.51617043272249,
          "longitude": 127.01895008389643
        },
        {
          "stationId": "A0009886",
          "brandCode": "HDO",
          "name": "(주)선문에너지 중앙주유소",
          "priceWon": 2368,
          "latitude": 37.481533602923854,
          "longitude": 127.0422132427978
        },
        {
          "stationId": "A0009710",
          "brandCode": "SKE",
          "name": "SK논현주유소",
          "priceWon": 2440,
          "latitude": 37.5186353072114,
          "longitude": 127.02822914622308
        },
        {
          "stationId": "A0009707",
          "brandCode": "HDO",
          "name": "(주)제이제이네트웍스 제이제이주유소",
          "priceWon": 2598,
          "latitude": 37.51766924311855,
          "longitude": 127.03574658765868
        },
        {
          "stationId": "A0009906",
          "brandCode": "SOL",
          "name": "극동유화(주) 전당앞주유소",
          "priceWon": 1979,
          "latitude": 37.48038962755173,
          "longitude": 127.0120365363896
        },
        {
          "stationId": "A0009725",
          "brandCode": "HDO",
          "name": "HD현대오일뱅크㈜직영 신사현대주유소",
          "priceWon": 2021,
          "latitude": 37.51952626017845,
          "longitude": 127.02632942227552
        },
        {
          "stationId": "A0000916",
          "brandCode": "GSC",
          "name": "대성산업(주)직영 강남주유소",
          "priceWon": 1996,
          "latitude": 37.50462649678972,
          "longitude": 127.0017446358805
        },
        {
          "stationId": "A0009705",
          "brandCode": "SKE",
          "name": "대교셀프주유소",
          "priceWon": 2045,
          "latitude": 37.518881853042316,
          "longitude": 127.01927817510486
        },
        {
          "stationId": "A0011828",
          "brandCode": "SKE",
          "name": "양재주유소",
          "priceWon": 1998,
          "latitude": 37.47808450744414,
          "longitude": 127.03953407552308
        },
        {
          "stationId": "A0000919",
          "brandCode": "HDO",
          "name": "HD현대오일뱅크㈜직영 팔레스주유소",
          "priceWon": 2009,
          "latitude": 37.50016366657998,
          "longitude": 126.99920908227521
        },
        {
          "stationId": "A0001217",
          "brandCode": "GSC",
          "name": "(주)소모 쎈트럴주유소",
          "priceWon": 2334,
          "latitude": 37.5014206116053,
          "longitude": 127.05913923708243
        },
        {
          "stationId": "A0000863",
          "brandCode": "SKE",
          "name": "신반포주유소",
          "priceWon": 1999,
          "latitude": 37.49840993571359,
          "longitude": 126.99480533184506
        },
        {
          "stationId": "A0009919",
          "brandCode": "HDO",
          "name": "HD현대오일뱅크㈜직영 양재현대주유소",
          "priceWon": 2005,
          "latitude": 37.473582895492136,
          "longitude": 127.0397384288739
        }
      ]
    },
    {
      "radiusMeters": 3000,
      "fuelType": "DIESEL",
      "stations": [
        {
          "stationId": "A0009907",
          "brandCode": "GSC",
          "name": "에너지플러스허브 삼방주유소",
          "priceWon": 2022,
          "latitude": 37.5038592059364,
          "longitude": 127.02317419164872
        },
        {
          "stationId": "A0010207",
          "brandCode": "SKE",
          "name": "SK서광주유소",
          "priceWon": 1990,
          "latitude": 37.494342850844376,
          "longitude": 127.03509278513955
        },
        {
          "stationId": "A0009905",
          "brandCode": "HDO",
          "name": "HD현대오일뱅크㈜직영 사평로주유소",
          "priceWon": 2000,
          "latitude": 37.50327593007212,
          "longitude": 127.02150768091882
        },
        {
          "stationId": "A0009913",
          "brandCode": "HDO",
          "name": "HD현대오일뱅크㈜직영 서초제일주유소",
          "priceWon": 2000,
          "latitude": 37.490559553508156,
          "longitude": 127.02260855568565
        },
        {
          "stationId": "A0009974",
          "brandCode": "GSC",
          "name": "지에스칼텍스㈜에너지플러스허브GS타워",
          "priceWon": 2022,
          "latitude": 37.50270179217919,
          "longitude": 127.03639187283768
        },
        {
          "stationId": "A0009061",
          "brandCode": "SOL",
          "name": "(주)선진도곡주유소",
          "priceWon": 1988,
          "latitude": 37.491199740537226,
          "longitude": 127.03749885029286
        },
        {
          "stationId": "A0009861",
          "brandCode": "SOL",
          "name": "오토테크주유소",
          "priceWon": 1991,
          "latitude": 37.48667479908557,
          "longitude": 127.02279401173456
        },
        {
          "stationId": "A0010236",
          "brandCode": "HDO",
          "name": "HD현대오일뱅크㈜직영 강남셀프주유소",
          "priceWon": 1995,
          "latitude": 37.49241175075716,
          "longitude": 127.04191650438408
        },
        {
          "stationId": "A0010269",
          "brandCode": "SOL",
          "name": "극동유화㈜ 개나리주유소",
          "priceWon": 2015,
          "latitude": 37.500922685879075,
          "longitude": 127.04311957576475
        },
        {
          "stationId": "A0006039",
          "brandCode": "SKE",
          "name": "(유)동하석유 힐탑셀프주유소",
          "priceWon": 2095,
          "latitude": 37.510737202013864,
          "longitude": 127.03273294779221
        },
        {
          "stationId": "A0000866",
          "brandCode": "GSC",
          "name": "반포그린주유소",
          "priceWon": 1995,
          "latitude": 37.503248089822094,
          "longitude": 127.01086975326696
        },
        {
          "stationId": "A0010232",
          "brandCode": "SOL",
          "name": "명품주유소",
          "priceWon": 2257,
          "latitude": 37.49409746137876,
          "longitude": 127.0456260865488
        },
        {
          "stationId": "A0009835",
          "brandCode": "SKE",
          "name": "오일프러스 셀프",
          "priceWon": 1986,
          "latitude": 37.48583639237537,
          "longitude": 127.03968545153442
        },
        {
          "stationId": "A0009869",
          "brandCode": "GSC",
          "name": "말죽거리주유소",
          "priceWon": 1986,
          "latitude": 37.48519480533853,
          "longitude": 127.04083944373005
        },
        {
          "stationId": "A0009917",
          "brandCode": "SKE",
          "name": "대신석유㈜서원주유소",
          "priceWon": 2098,
          "latitude": 37.49263818433361,
          "longitude": 127.00759237474401
        },
        {
          "stationId": "A0009901",
          "brandCode": "GSC",
          "name": "대성석유(주)연일주유소",
          "priceWon": 1996,
          "latitude": 37.48257930321935,
          "longitude": 127.01852201969501
        },
        {
          "stationId": "A0000915",
          "brandCode": "GSC",
          "name": "대성산업(주)직영 터미널(고속)주유소",
          "priceWon": 1995,
          "latitude": 37.50673138408668,
          "longitude": 127.0088196870799
        },
        {
          "stationId": "A0009738",
          "brandCode": "HDO",
          "name": "HD현대오일뱅크㈜직영 도곡셀프주유소",
          "priceWon": 2000,
          "latitude": 37.485461311680915,
          "longitude": 127.04321476202395
        },
        {
          "stationId": "A0009912",
          "brandCode": "GSC",
          "name": "(주)한미석유 서초주유소",
          "priceWon": 1995,
          "latitude": 37.48613464972351,
          "longitude": 127.01081362695857
        },
        {
          "stationId": "A0009890",
          "brandCode": "GSC",
          "name": "서초꽃마을주유소",
          "priceWon": 1995,
          "latitude": 37.486527793706955,
          "longitude": 127.00992555707809
        },
        {
          "stationId": "A0010229",
          "brandCode": "HDO",
          "name": "HD현대오일뱅크㈜직영 유진주유소",
          "priceWon": 2000,
          "latitude": 37.48325059688775,
          "longitude": 127.04267263037549
        },
        {
          "stationId": "A0000908",
          "brandCode": "GSC",
          "name": "지에스칼텍스(주)남서울주유소",
          "priceWon": 2022,
          "latitude": 37.51617043272249,
          "longitude": 127.01895008389643
        },
        {
          "stationId": "A0009886",
          "brandCode": "HDO",
          "name": "(주)선문에너지 중앙주유소",
          "priceWon": 2198,
          "latitude": 37.481533602923854,
          "longitude": 127.0422132427978
        },
        {
          "stationId": "A0009710",
          "brandCode": "SKE",
          "name": "SK논현주유소",
          "priceWon": 2340,
          "latitude": 37.5186353072114,
          "longitude": 127.02822914622308
        },
        {
          "stationId": "A0009707",
          "brandCode": "HDO",
          "name": "(주)제이제이네트웍스 제이제이주유소",
          "priceWon": 2430,
          "latitude": 37.51766924311855,
          "longitude": 127.03574658765868
        },
        {
          "stationId": "A0009906",
          "brandCode": "SOL",
          "name": "극동유화(주) 전당앞주유소",
          "priceWon": 1979,
          "latitude": 37.48038962755173,
          "longitude": 127.0120365363896
        },
        {
          "stationId": "A0009725",
          "brandCode": "HDO",
          "name": "HD현대오일뱅크㈜직영 신사현대주유소",
          "priceWon": 2000,
          "latitude": 37.51952626017845,
          "longitude": 127.02632942227552
        },
        {
          "stationId": "A0000916",
          "brandCode": "GSC",
          "name": "대성산업(주)직영 강남주유소",
          "priceWon": 1990,
          "latitude": 37.50462649678972,
          "longitude": 127.0017446358805
        },
        {
          "stationId": "A0009705",
          "brandCode": "SKE",
          "name": "대교셀프주유소",
          "priceWon": 1990,
          "latitude": 37.518881853042316,
          "longitude": 127.01927817510486
        },
        {
          "stationId": "A0011828",
          "brandCode": "SKE",
          "name": "양재주유소",
          "priceWon": 1995,
          "latitude": 37.47808450744414,
          "longitude": 127.03953407552308
        },
        {
          "stationId": "A0000919",
          "brandCode": "HDO",
          "name": "HD현대오일뱅크㈜직영 팔레스주유소",
          "priceWon": 2000,
          "latitude": 37.50016366657998,
          "longitude": 126.99920908227521
        },
        {
          "stationId": "A0001217",
          "brandCode": "GSC",
          "name": "(주)소모 쎈트럴주유소",
          "priceWon": 2244,
          "latitude": 37.5014206116053,
          "longitude": 127.05913923708243
        },
        {
          "stationId": "A0000863",
          "brandCode": "SKE",
          "name": "신반포주유소",
          "priceWon": 2015,
          "latitude": 37.49840993571359,
          "longitude": 126.99480533184506
        },
        {
          "stationId": "A0009919",
          "brandCode": "HDO",
          "name": "HD현대오일뱅크㈜직영 양재현대주유소",
          "priceWon": 2000,
          "latitude": 37.473582895492136,
          "longitude": 127.0397384288739
        }
      ]
    },
    {
      "radiusMeters": 3000,
      "fuelType": "PREMIUM_GASOLINE",
      "stations": [
        {
          "stationId": "A0009907",
          "brandCode": "GSC",
          "name": "에너지플러스허브 삼방주유소",
          "priceWon": 2415,
          "latitude": 37.5038592059364,
          "longitude": 127.02317419164872
        },
        {
          "stationId": "A0010207",
          "brandCode": "SKE",
          "name": "SK서광주유소",
          "priceWon": 2500,
          "latitude": 37.494342850844376,
          "longitude": 127.03509278513955
        },
        {
          "stationId": "A0009905",
          "brandCode": "HDO",
          "name": "HD현대오일뱅크㈜직영 사평로주유소",
          "priceWon": 2388,
          "latitude": 37.50327593007212,
          "longitude": 127.02150768091882
        },
        {
          "stationId": "A0009913",
          "brandCode": "HDO",
          "name": "HD현대오일뱅크㈜직영 서초제일주유소",
          "priceWon": 2447,
          "latitude": 37.490559553508156,
          "longitude": 127.02260855568565
        },
        {
          "stationId": "A0009974",
          "brandCode": "GSC",
          "name": "지에스칼텍스㈜에너지플러스허브GS타워",
          "priceWon": 2538,
          "latitude": 37.50270179217919,
          "longitude": 127.03639187283768
        },
        {
          "stationId": "A0009061",
          "brandCode": "SOL",
          "name": "(주)선진도곡주유소",
          "priceWon": 2450,
          "latitude": 37.491199740537226,
          "longitude": 127.03749885029286
        },
        {
          "stationId": "A0009861",
          "brandCode": "SOL",
          "name": "오토테크주유소",
          "priceWon": 2291,
          "latitude": 37.48667479908557,
          "longitude": 127.02279401173456
        },
        {
          "stationId": "A0010236",
          "brandCode": "HDO",
          "name": "HD현대오일뱅크㈜직영 강남셀프주유소",
          "priceWon": 2388,
          "latitude": 37.49241175075716,
          "longitude": 127.04191650438408
        },
        {
          "stationId": "A0010269",
          "brandCode": "SOL",
          "name": "극동유화㈜ 개나리주유소",
          "priceWon": 2350,
          "latitude": 37.500922685879075,
          "longitude": 127.04311957576475
        },
        {
          "stationId": "A0006039",
          "brandCode": "SKE",
          "name": "(유)동하석유 힐탑셀프주유소",
          "priceWon": 2695,
          "latitude": 37.510737202013864,
          "longitude": 127.03273294779221
        },
        {
          "stationId": "A0000866",
          "brandCode": "GSC",
          "name": "반포그린주유소",
          "priceWon": 2395,
          "latitude": 37.503248089822094,
          "longitude": 127.01086975326696
        },
        {
          "stationId": "A0010232",
          "brandCode": "SOL",
          "name": "명품주유소",
          "priceWon": 2598,
          "latitude": 37.49409746137876,
          "longitude": 127.0456260865488
        },
        {
          "stationId": "A0009835",
          "brandCode": "SKE",
          "name": "오일프러스 셀프",
          "priceWon": 2470,
          "latitude": 37.48583639237537,
          "longitude": 127.03968545153442
        },
        {
          "stationId": "A0009869",
          "brandCode": "GSC",
          "name": "말죽거리주유소",
          "priceWon": 2396,
          "latitude": 37.48519480533853,
          "longitude": 127.04083944373005
        },
        {
          "stationId": "A0009917",
          "brandCode": "SKE",
          "name": "대신석유㈜서원주유소",
          "priceWon": 2388,
          "latitude": 37.49263818433361,
          "longitude": 127.00759237474401
        },
        {
          "stationId": "A0009901",
          "brandCode": "GSC",
          "name": "대성석유(주)연일주유소",
          "priceWon": 2425,
          "latitude": 37.48257930321935,
          "longitude": 127.01852201969501
        },
        {
          "stationId": "A0000915",
          "brandCode": "GSC",
          "name": "대성산업(주)직영 터미널(고속)주유소",
          "priceWon": 2460,
          "latitude": 37.50673138408668,
          "longitude": 127.0088196870799
        },
        {
          "stationId": "A0009738",
          "brandCode": "HDO",
          "name": "HD현대오일뱅크㈜직영 도곡셀프주유소",
          "priceWon": 2388,
          "latitude": 37.485461311680915,
          "longitude": 127.04321476202395
        },
        {
          "stationId": "A0009912",
          "brandCode": "GSC",
          "name": "(주)한미석유 서초주유소",
          "priceWon": 2395,
          "latitude": 37.48613464972351,
          "longitude": 127.01081362695857
        },
        {
          "stationId": "A0009890",
          "brandCode": "GSC",
          "name": "서초꽃마을주유소",
          "priceWon": 2395,
          "latitude": 37.486527793706955,
          "longitude": 127.00992555707809
        },
        {
          "stationId": "A0010229",
          "brandCode": "HDO",
          "name": "HD현대오일뱅크㈜직영 유진주유소",
          "priceWon": 2388,
          "latitude": 37.48325059688775,
          "longitude": 127.04267263037549
        },
        {
          "stationId": "A0000908",
          "brandCode": "GSC",
          "name": "지에스칼텍스(주)남서울주유소",
          "priceWon": 2468,
          "latitude": 37.51617043272249,
          "longitude": 127.01895008389643
        },
        {
          "stationId": "A0009886",
          "brandCode": "HDO",
          "name": "(주)선문에너지 중앙주유소",
          "priceWon": 2598,
          "latitude": 37.481533602923854,
          "longitude": 127.0422132427978
        },
        {
          "stationId": "A0009710",
          "brandCode": "SKE",
          "name": "SK논현주유소",
          "priceWon": 2794,
          "latitude": 37.5186353072114,
          "longitude": 127.02822914622308
        },
        {
          "stationId": "A0009707",
          "brandCode": "HDO",
          "name": "(주)제이제이네트웍스 제이제이주유소",
          "priceWon": 2970,
          "latitude": 37.51766924311855,
          "longitude": 127.03574658765868
        },
        {
          "stationId": "A0009906",
          "brandCode": "SOL",
          "name": "극동유화(주) 전당앞주유소",
          "priceWon": 2320,
          "latitude": 37.48038962755173,
          "longitude": 127.0120365363896
        },
        {
          "stationId": "A0009725",
          "brandCode": "HDO",
          "name": "HD현대오일뱅크㈜직영 신사현대주유소",
          "priceWon": 2635,
          "latitude": 37.51952626017845,
          "longitude": 127.02632942227552
        },
        {
          "stationId": "A0000916",
          "brandCode": "GSC",
          "name": "대성산업(주)직영 강남주유소",
          "priceWon": 2390,
          "latitude": 37.50462649678972,
          "longitude": 127.0017446358805
        },
        {
          "stationId": "A0009705",
          "brandCode": "SKE",
          "name": "대교셀프주유소",
          "priceWon": 2590,
          "latitude": 37.518881853042316,
          "longitude": 127.01927817510486
        },
        {
          "stationId": "A0011828",
          "brandCode": "SKE",
          "name": "양재주유소",
          "priceWon": 2470,
          "latitude": 37.47808450744414,
          "longitude": 127.03953407552308
        },
        {
          "stationId": "A0000919",
          "brandCode": "HDO",
          "name": "HD현대오일뱅크㈜직영 팔레스주유소",
          "priceWon": 2388,
          "latitude": 37.50016366657998,
          "longitude": 126.99920908227521
        },
        {
          "stationId": "A0001217",
          "brandCode": "GSC",
          "name": "(주)소모 쎈트럴주유소",
          "priceWon": 2584,
          "latitude": 37.5014206116053,
          "longitude": 127.05913923708243
        },
        {
          "stationId": "A0000863",
          "brandCode": "SKE",
          "name": "신반포주유소",
          "priceWon": 2410,
          "latitude": 37.49840993571359,
          "longitude": 126.99480533184506
        },
        {
          "stationId": "A0009919",
          "brandCode": "HDO",
          "name": "HD현대오일뱅크㈜직영 양재현대주유소",
          "priceWon": 2349,
          "latitude": 37.473582895492136,
          "longitude": 127.0397384288739
        }
      ]
    },
    {
      "radiusMeters": 3000,
      "fuelType": "KEROSENE",
      "stations": [
        {
          "stationId": "A0009901",
          "brandCode": "GSC",
          "name": "대성석유(주)연일주유소",
          "priceWon": 1800,
          "latitude": 37.48257930321935,
          "longitude": 127.01852201969501
        },
        {
          "stationId": "A0000915",
          "brandCode": "GSC",
          "name": "대성산업(주)직영 터미널(고속)주유소",
          "priceWon": 1650,
          "latitude": 37.50673138408668,
          "longitude": 127.0088196870799
        },
        {
          "stationId": "A0010229",
          "brandCode": "HDO",
          "name": "HD현대오일뱅크㈜직영 유진주유소",
          "priceWon": 1715,
          "latitude": 37.48325059688775,
          "longitude": 127.04267263037549
        },
        {
          "stationId": "A0009886",
          "brandCode": "HDO",
          "name": "(주)선문에너지 중앙주유소",
          "priceWon": 1990,
          "latitude": 37.481533602923854,
          "longitude": 127.0422132427978
        },
        {
          "stationId": "A0009710",
          "brandCode": "SKE",
          "name": "SK논현주유소",
          "priceWon": 1850,
          "latitude": 37.5186353072114,
          "longitude": 127.02822914622308
        },
        {
          "stationId": "A0001217",
          "brandCode": "GSC",
          "name": "(주)소모 쎈트럴주유소",
          "priceWon": 1550,
          "latitude": 37.5014206116053,
          "longitude": 127.05913923708243
        },
        {
          "stationId": "A0009919",
          "brandCode": "HDO",
          "name": "HD현대오일뱅크㈜직영 양재현대주유소",
          "priceWon": 1715,
          "latitude": 37.473582895492136,
          "longitude": 127.0397384288739
        }
      ]
    },
    {
      "radiusMeters": 3000,
      "fuelType": "LPG",
      "stations": [
        {
          "stationId": "A0009839",
          "brandCode": "SKE",
          "name": "(주)진양가스",
          "priceWon": 1101,
          "latitude": 37.490411101786314,
          "longitude": 127.03581273434159
        }
      ]
    },
    {
      "radiusMeters": 4000,
      "fuelType": "GASOLINE",
      "stations": [
        {
          "stationId": "A0009907",
          "brandCode": "GSC",
          "name": "에너지플러스허브 삼방주유소",
          "priceWon": 2028,
          "latitude": 37.5038592059364,
          "longitude": 127.02317419164872
        },
        {
          "stationId": "A0010207",
          "brandCode": "SKE",
          "name": "SK서광주유소",
          "priceWon": 2040,
          "latitude": 37.494342850844376,
          "longitude": 127.03509278513955
        },
        {
          "stationId": "A0009905",
          "brandCode": "HDO",
          "name": "HD현대오일뱅크㈜직영 사평로주유소",
          "priceWon": 2006,
          "latitude": 37.50327593007212,
          "longitude": 127.02150768091882
        },
        {
          "stationId": "A0009913",
          "brandCode": "HDO",
          "name": "HD현대오일뱅크㈜직영 서초제일주유소",
          "priceWon": 2006,
          "latitude": 37.490559553508156,
          "longitude": 127.02260855568565
        },
        {
          "stationId": "A0009974",
          "brandCode": "GSC",
          "name": "지에스칼텍스㈜에너지플러스허브GS타워",
          "priceWon": 2028,
          "latitude": 37.50270179217919,
          "longitude": 127.03639187283768
        },
        {
          "stationId": "A0009061",
          "brandCode": "SOL",
          "name": "(주)선진도곡주유소",
          "priceWon": 2049,
          "latitude": 37.491199740537226,
          "longitude": 127.03749885029286
        },
        {
          "stationId": "A0009861",
          "brandCode": "SOL",
          "name": "오토테크주유소",
          "priceWon": 1991,
          "latitude": 37.48667479908557,
          "longitude": 127.02279401173456
        },
        {
          "stationId": "A0010236",
          "brandCode": "HDO",
          "name": "HD현대오일뱅크㈜직영 강남셀프주유소",
          "priceWon": 2009,
          "latitude": 37.49241175075716,
          "longitude": 127.04191650438408
        },
        {
          "stationId": "A0010269",
          "brandCode": "SOL",
          "name": "극동유화㈜ 개나리주유소",
          "priceWon": 2029,
          "latitude": 37.500922685879075,
          "longitude": 127.04311957576475
        },
        {
          "stationId": "A0006039",
          "brandCode": "SKE",
          "name": "(유)동하석유 힐탑셀프주유소",
          "priceWon": 2125,
          "latitude": 37.510737202013864,
          "longitude": 127.03273294779221
        },
        {
          "stationId": "A0000866",
          "brandCode": "GSC",
          "name": "반포그린주유소",
          "priceWon": 1995,
          "latitude": 37.503248089822094,
          "longitude": 127.01086975326696
        },
        {
          "stationId": "A0010232",
          "brandCode": "SOL",
          "name": "명품주유소",
          "priceWon": 2348,
          "latitude": 37.49409746137876,
          "longitude": 127.0456260865488
        },
        {
          "stationId": "A0009835",
          "brandCode": "SKE",
          "name": "오일프러스 셀프",
          "priceWon": 1978,
          "latitude": 37.48583639237537,
          "longitude": 127.03968545153442
        },
        {
          "stationId": "A0009869",
          "brandCode": "GSC",
          "name": "말죽거리주유소",
          "priceWon": 1996,
          "latitude": 37.48519480533853,
          "longitude": 127.04083944373005
        },
        {
          "stationId": "A0009917",
          "brandCode": "SKE",
          "name": "대신석유㈜서원주유소",
          "priceWon": 2098,
          "latitude": 37.49263818433361,
          "longitude": 127.00759237474401
        },
        {
          "stationId": "A0009901",
          "brandCode": "GSC",
          "name": "대성석유(주)연일주유소",
          "priceWon": 1996,
          "latitude": 37.48257930321935,
          "longitude": 127.01852201969501
        },
        {
          "stationId": "A0000915",
          "brandCode": "GSC",
          "name": "대성산업(주)직영 터미널(고속)주유소",
          "priceWon": 2013,
          "latitude": 37.50673138408668,
          "longitude": 127.0088196870799
        },
        {
          "stationId": "A0009738",
          "brandCode": "HDO",
          "name": "HD현대오일뱅크㈜직영 도곡셀프주유소",
          "priceWon": 2009,
          "latitude": 37.485461311680915,
          "longitude": 127.04321476202395
        },
        {
          "stationId": "A0009912",
          "brandCode": "GSC",
          "name": "(주)한미석유 서초주유소",
          "priceWon": 1995,
          "latitude": 37.48613464972351,
          "longitude": 127.01081362695857
        },
        {
          "stationId": "A0009890",
          "brandCode": "GSC",
          "name": "서초꽃마을주유소",
          "priceWon": 1995,
          "latitude": 37.486527793706955,
          "longitude": 127.00992555707809
        },
        {
          "stationId": "A0010229",
          "brandCode": "HDO",
          "name": "HD현대오일뱅크㈜직영 유진주유소",
          "priceWon": 2006,
          "latitude": 37.48325059688775,
          "longitude": 127.04267263037549
        },
        {
          "stationId": "A0000908",
          "brandCode": "GSC",
          "name": "지에스칼텍스(주)남서울주유소",
          "priceWon": 2038,
          "latitude": 37.51617043272249,
          "longitude": 127.01895008389643
        },
        {
          "stationId": "A0009886",
          "brandCode": "HDO",
          "name": "(주)선문에너지 중앙주유소",
          "priceWon": 2368,
          "latitude": 37.481533602923854,
          "longitude": 127.0422132427978
        },
        {
          "stationId": "A0009710",
          "brandCode": "SKE",
          "name": "SK논현주유소",
          "priceWon": 2440,
          "latitude": 37.5186353072114,
          "longitude": 127.02822914622308
        },
        {
          "stationId": "A0009707",
          "brandCode": "HDO",
          "name": "(주)제이제이네트웍스 제이제이주유소",
          "priceWon": 2598,
          "latitude": 37.51766924311855,
          "longitude": 127.03574658765868
        },
        {
          "stationId": "A0009906",
          "brandCode": "SOL",
          "name": "극동유화(주) 전당앞주유소",
          "priceWon": 1979,
          "latitude": 37.48038962755173,
          "longitude": 127.0120365363896
        },
        {
          "stationId": "A0009725",
          "brandCode": "HDO",
          "name": "HD현대오일뱅크㈜직영 신사현대주유소",
          "priceWon": 2021,
          "latitude": 37.51952626017845,
          "longitude": 127.02632942227552
        },
        {
          "stationId": "A0000916",
          "brandCode": "GSC",
          "name": "대성산업(주)직영 강남주유소",
          "priceWon": 1996,
          "latitude": 37.50462649678972,
          "longitude": 127.0017446358805
        },
        {
          "stationId": "A0009705",
          "brandCode": "SKE",
          "name": "대교셀프주유소",
          "priceWon": 2045,
          "latitude": 37.518881853042316,
          "longitude": 127.01927817510486
        },
        {
          "stationId": "A0011828",
          "brandCode": "SKE",
          "name": "양재주유소",
          "priceWon": 1998,
          "latitude": 37.47808450744414,
          "longitude": 127.03953407552308
        },
        {
          "stationId": "A0000919",
          "brandCode": "HDO",
          "name": "HD현대오일뱅크㈜직영 팔레스주유소",
          "priceWon": 2009,
          "latitude": 37.50016366657998,
          "longitude": 126.99920908227521
        },
        {
          "stationId": "A0001217",
          "brandCode": "GSC",
          "name": "(주)소모 쎈트럴주유소",
          "priceWon": 2334,
          "latitude": 37.5014206116053,
          "longitude": 127.05913923708243
        },
        {
          "stationId": "A0000863",
          "brandCode": "SKE",
          "name": "신반포주유소",
          "priceWon": 1999,
          "latitude": 37.49840993571359,
          "longitude": 126.99480533184506
        },
        {
          "stationId": "A0009919",
          "brandCode": "HDO",
          "name": "HD현대오일뱅크㈜직영 양재현대주유소",
          "priceWon": 2005,
          "latitude": 37.473582895492136,
          "longitude": 127.0397384288739
        },
        {
          "stationId": "A0009712",
          "brandCode": "SKE",
          "name": "대동석유 압구정주유소",
          "priceWon": 2125,
          "latitude": 37.525339815453265,
          "longitude": 127.0338536658803
        },
        {
          "stationId": "A0009715",
          "brandCode": "HDO",
          "name": "㈜새서울석유 새서울주유소",
          "priceWon": 2388,
          "latitude": 37.52594000739342,
          "longitude": 127.0263959065158
        },
        {
          "stationId": "A0011816",
          "brandCode": "SKE",
          "name": "태봉셀프주유소",
          "priceWon": 1995,
          "latitude": 37.468335563487926,
          "longitude": 127.02820186073195
        },
        {
          "stationId": "A0009881",
          "brandCode": "SOL",
          "name": "양재최고주유소",
          "priceWon": 1984,
          "latitude": 37.46715469172747,
          "longitude": 127.03469799826911
        },
        {
          "stationId": "A0009724",
          "brandCode": "RTO",
          "name": "한양주유소",
          "priceWon": 2049,
          "latitude": 37.52888094551174,
          "longitude": 127.03407393594749
        },
        {
          "stationId": "A0001185",
          "brandCode": "GSC",
          "name": "지에스칼텍스㈜ 은마주유소",
          "priceWon": 2048,
          "latitude": 37.50007044925382,
          "longitude": 127.067284378199
        },
        {
          "stationId": "A0001214",
          "brandCode": "HDO",
          "name": "삼성동주유소",
          "priceWon": 2165,
          "latitude": 37.50985877325291,
          "longitude": 127.06511478788461
        },
        {
          "stationId": "A0000206",
          "brandCode": "SKE",
          "name": "(주)남경주유소",
          "priceWon": 2398,
          "latitude": 37.52248232278886,
          "longitude": 126.99925582547965
        },
        {
          "stationId": "A0000890",
          "brandCode": "GSC",
          "name": "지에스칼텍스(주)선천주유소",
          "priceWon": 2004,
          "latitude": 37.49499511703809,
          "longitude": 126.9831797433678
        },
        {
          "stationId": "A0000917",
          "brandCode": "HDO",
          "name": "방배주유소",
          "priceWon": 1998,
          "latitude": 37.4928537518744,
          "longitude": 126.98317430553207
        }
      ]
    },
    {
      "radiusMeters": 4000,
      "fuelType": "DIESEL",
      "stations": [
        {
          "stationId": "A0009907",
          "brandCode": "GSC",
          "name": "에너지플러스허브 삼방주유소",
          "priceWon": 2022,
          "latitude": 37.5038592059364,
          "longitude": 127.02317419164872
        },
        {
          "stationId": "A0010207",
          "brandCode": "SKE",
          "name": "SK서광주유소",
          "priceWon": 1990,
          "latitude": 37.494342850844376,
          "longitude": 127.03509278513955
        },
        {
          "stationId": "A0009905",
          "brandCode": "HDO",
          "name": "HD현대오일뱅크㈜직영 사평로주유소",
          "priceWon": 2000,
          "latitude": 37.50327593007212,
          "longitude": 127.02150768091882
        },
        {
          "stationId": "A0009913",
          "brandCode": "HDO",
          "name": "HD현대오일뱅크㈜직영 서초제일주유소",
          "priceWon": 2000,
          "latitude": 37.490559553508156,
          "longitude": 127.02260855568565
        },
        {
          "stationId": "A0009974",
          "brandCode": "GSC",
          "name": "지에스칼텍스㈜에너지플러스허브GS타워",
          "priceWon": 2022,
          "latitude": 37.50270179217919,
          "longitude": 127.03639187283768
        },
        {
          "stationId": "A0009061",
          "brandCode": "SOL",
          "name": "(주)선진도곡주유소",
          "priceWon": 1988,
          "latitude": 37.491199740537226,
          "longitude": 127.03749885029286
        },
        {
          "stationId": "A0009861",
          "brandCode": "SOL",
          "name": "오토테크주유소",
          "priceWon": 1991,
          "latitude": 37.48667479908557,
          "longitude": 127.02279401173456
        },
        {
          "stationId": "A0010236",
          "brandCode": "HDO",
          "name": "HD현대오일뱅크㈜직영 강남셀프주유소",
          "priceWon": 1995,
          "latitude": 37.49241175075716,
          "longitude": 127.04191650438408
        },
        {
          "stationId": "A0010269",
          "brandCode": "SOL",
          "name": "극동유화㈜ 개나리주유소",
          "priceWon": 2015,
          "latitude": 37.500922685879075,
          "longitude": 127.04311957576475
        },
        {
          "stationId": "A0006039",
          "brandCode": "SKE",
          "name": "(유)동하석유 힐탑셀프주유소",
          "priceWon": 2095,
          "latitude": 37.510737202013864,
          "longitude": 127.03273294779221
        },
        {
          "stationId": "A0000866",
          "brandCode": "GSC",
          "name": "반포그린주유소",
          "priceWon": 1995,
          "latitude": 37.503248089822094,
          "longitude": 127.01086975326696
        },
        {
          "stationId": "A0010232",
          "brandCode": "SOL",
          "name": "명품주유소",
          "priceWon": 2257,
          "latitude": 37.49409746137876,
          "longitude": 127.0456260865488
        },
        {
          "stationId": "A0009835",
          "brandCode": "SKE",
          "name": "오일프러스 셀프",
          "priceWon": 1986,
          "latitude": 37.48583639237537,
          "longitude": 127.03968545153442
        },
        {
          "stationId": "A0009869",
          "brandCode": "GSC",
          "name": "말죽거리주유소",
          "priceWon": 1986,
          "latitude": 37.48519480533853,
          "longitude": 127.04083944373005
        },
        {
          "stationId": "A0009917",
          "brandCode": "SKE",
          "name": "대신석유㈜서원주유소",
          "priceWon": 2098,
          "latitude": 37.49263818433361,
          "longitude": 127.00759237474401
        },
        {
          "stationId": "A0009901",
          "brandCode": "GSC",
          "name": "대성석유(주)연일주유소",
          "priceWon": 1996,
          "latitude": 37.48257930321935,
          "longitude": 127.01852201969501
        },
        {
          "stationId": "A0000915",
          "brandCode": "GSC",
          "name": "대성산업(주)직영 터미널(고속)주유소",
          "priceWon": 1995,
          "latitude": 37.50673138408668,
          "longitude": 127.0088196870799
        },
        {
          "stationId": "A0009738",
          "brandCode": "HDO",
          "name": "HD현대오일뱅크㈜직영 도곡셀프주유소",
          "priceWon": 2000,
          "latitude": 37.485461311680915,
          "longitude": 127.04321476202395
        },
        {
          "stationId": "A0009912",
          "brandCode": "GSC",
          "name": "(주)한미석유 서초주유소",
          "priceWon": 1995,
          "latitude": 37.48613464972351,
          "longitude": 127.01081362695857
        },
        {
          "stationId": "A0009890",
          "brandCode": "GSC",
          "name": "서초꽃마을주유소",
          "priceWon": 1995,
          "latitude": 37.486527793706955,
          "longitude": 127.00992555707809
        },
        {
          "stationId": "A0010229",
          "brandCode": "HDO",
          "name": "HD현대오일뱅크㈜직영 유진주유소",
          "priceWon": 2000,
          "latitude": 37.48325059688775,
          "longitude": 127.04267263037549
        },
        {
          "stationId": "A0000908",
          "brandCode": "GSC",
          "name": "지에스칼텍스(주)남서울주유소",
          "priceWon": 2022,
          "latitude": 37.51617043272249,
          "longitude": 127.01895008389643
        },
        {
          "stationId": "A0009886",
          "brandCode": "HDO",
          "name": "(주)선문에너지 중앙주유소",
          "priceWon": 2198,
          "latitude": 37.481533602923854,
          "longitude": 127.0422132427978
        },
        {
          "stationId": "A0009710",
          "brandCode": "SKE",
          "name": "SK논현주유소",
          "priceWon": 2340,
          "latitude": 37.5186353072114,
          "longitude": 127.02822914622308
        },
        {
          "stationId": "A0009707",
          "brandCode": "HDO",
          "name": "(주)제이제이네트웍스 제이제이주유소",
          "priceWon": 2430,
          "latitude": 37.51766924311855,
          "longitude": 127.03574658765868
        },
        {
          "stationId": "A0009906",
          "brandCode": "SOL",
          "name": "극동유화(주) 전당앞주유소",
          "priceWon": 1979,
          "latitude": 37.48038962755173,
          "longitude": 127.0120365363896
        },
        {
          "stationId": "A0009725",
          "brandCode": "HDO",
          "name": "HD현대오일뱅크㈜직영 신사현대주유소",
          "priceWon": 2000,
          "latitude": 37.51952626017845,
          "longitude": 127.02632942227552
        },
        {
          "stationId": "A0000916",
          "brandCode": "GSC",
          "name": "대성산업(주)직영 강남주유소",
          "priceWon": 1990,
          "latitude": 37.50462649678972,
          "longitude": 127.0017446358805
        },
        {
          "stationId": "A0009705",
          "brandCode": "SKE",
          "name": "대교셀프주유소",
          "priceWon": 1990,
          "latitude": 37.518881853042316,
          "longitude": 127.01927817510486
        },
        {
          "stationId": "A0011828",
          "brandCode": "SKE",
          "name": "양재주유소",
          "priceWon": 1995,
          "latitude": 37.47808450744414,
          "longitude": 127.03953407552308
        },
        {
          "stationId": "A0000919",
          "brandCode": "HDO",
          "name": "HD현대오일뱅크㈜직영 팔레스주유소",
          "priceWon": 2000,
          "latitude": 37.50016366657998,
          "longitude": 126.99920908227521
        },
        {
          "stationId": "A0001217",
          "brandCode": "GSC",
          "name": "(주)소모 쎈트럴주유소",
          "priceWon": 2244,
          "latitude": 37.5014206116053,
          "longitude": 127.05913923708243
        },
        {
          "stationId": "A0000863",
          "brandCode": "SKE",
          "name": "신반포주유소",
          "priceWon": 2015,
          "latitude": 37.49840993571359,
          "longitude": 126.99480533184506
        },
        {
          "stationId": "A0009919",
          "brandCode": "HDO",
          "name": "HD현대오일뱅크㈜직영 양재현대주유소",
          "priceWon": 2000,
          "latitude": 37.473582895492136,
          "longitude": 127.0397384288739
        },
        {
          "stationId": "A0009712",
          "brandCode": "SKE",
          "name": "대동석유 압구정주유소",
          "priceWon": 2095,
          "latitude": 37.525339815453265,
          "longitude": 127.0338536658803
        },
        {
          "stationId": "A0009715",
          "brandCode": "HDO",
          "name": "㈜새서울석유 새서울주유소",
          "priceWon": 2298,
          "latitude": 37.52594000739342,
          "longitude": 127.0263959065158
        },
        {
          "stationId": "A0011816",
          "brandCode": "SKE",
          "name": "태봉셀프주유소",
          "priceWon": 1995,
          "latitude": 37.468335563487926,
          "longitude": 127.02820186073195
        },
        {
          "stationId": "A0009881",
          "brandCode": "SOL",
          "name": "양재최고주유소",
          "priceWon": 1984,
          "latitude": 37.46715469172747,
          "longitude": 127.03469799826911
        },
        {
          "stationId": "A0009724",
          "brandCode": "RTO",
          "name": "한양주유소",
          "priceWon": 2049,
          "latitude": 37.52888094551174,
          "longitude": 127.03407393594749
        },
        {
          "stationId": "A0001185",
          "brandCode": "GSC",
          "name": "지에스칼텍스㈜ 은마주유소",
          "priceWon": 2022,
          "latitude": 37.50007044925382,
          "longitude": 127.067284378199
        },
        {
          "stationId": "A0001214",
          "brandCode": "HDO",
          "name": "삼성동주유소",
          "priceWon": 2095,
          "latitude": 37.50985877325291,
          "longitude": 127.06511478788461
        },
        {
          "stationId": "A0000206",
          "brandCode": "SKE",
          "name": "(주)남경주유소",
          "priceWon": 2398,
          "latitude": 37.52248232278886,
          "longitude": 126.99925582547965
        },
        {
          "stationId": "A0000890",
          "brandCode": "GSC",
          "name": "지에스칼텍스(주)선천주유소",
          "priceWon": 2010,
          "latitude": 37.49499511703809,
          "longitude": 126.9831797433678
        },
        {
          "stationId": "A0000917",
          "brandCode": "HDO",
          "name": "방배주유소",
          "priceWon": 2009,
          "latitude": 37.4928537518744,
          "longitude": 126.98317430553207
        }
      ]
    },
    {
      "radiusMeters": 4000,
      "fuelType": "PREMIUM_GASOLINE",
      "stations": [
        {
          "stationId": "A0009907",
          "brandCode": "GSC",
          "name": "에너지플러스허브 삼방주유소",
          "priceWon": 2415,
          "latitude": 37.5038592059364,
          "longitude": 127.02317419164872
        },
        {
          "stationId": "A0010207",
          "brandCode": "SKE",
          "name": "SK서광주유소",
          "priceWon": 2500,
          "latitude": 37.494342850844376,
          "longitude": 127.03509278513955
        },
        {
          "stationId": "A0009905",
          "brandCode": "HDO",
          "name": "HD현대오일뱅크㈜직영 사평로주유소",
          "priceWon": 2388,
          "latitude": 37.50327593007212,
          "longitude": 127.02150768091882
        },
        {
          "stationId": "A0009913",
          "brandCode": "HDO",
          "name": "HD현대오일뱅크㈜직영 서초제일주유소",
          "priceWon": 2447,
          "latitude": 37.490559553508156,
          "longitude": 127.02260855568565
        },
        {
          "stationId": "A0009974",
          "brandCode": "GSC",
          "name": "지에스칼텍스㈜에너지플러스허브GS타워",
          "priceWon": 2538,
          "latitude": 37.50270179217919,
          "longitude": 127.03639187283768
        },
        {
          "stationId": "A0009061",
          "brandCode": "SOL",
          "name": "(주)선진도곡주유소",
          "priceWon": 2450,
          "latitude": 37.491199740537226,
          "longitude": 127.03749885029286
        },
        {
          "stationId": "A0009861",
          "brandCode": "SOL",
          "name": "오토테크주유소",
          "priceWon": 2291,
          "latitude": 37.48667479908557,
          "longitude": 127.02279401173456
        },
        {
          "stationId": "A0010236",
          "brandCode": "HDO",
          "name": "HD현대오일뱅크㈜직영 강남셀프주유소",
          "priceWon": 2388,
          "latitude": 37.49241175075716,
          "longitude": 127.04191650438408
        },
        {
          "stationId": "A0010269",
          "brandCode": "SOL",
          "name": "극동유화㈜ 개나리주유소",
          "priceWon": 2350,
          "latitude": 37.500922685879075,
          "longitude": 127.04311957576475
        },
        {
          "stationId": "A0006039",
          "brandCode": "SKE",
          "name": "(유)동하석유 힐탑셀프주유소",
          "priceWon": 2695,
          "latitude": 37.510737202013864,
          "longitude": 127.03273294779221
        },
        {
          "stationId": "A0000866",
          "brandCode": "GSC",
          "name": "반포그린주유소",
          "priceWon": 2395,
          "latitude": 37.503248089822094,
          "longitude": 127.01086975326696
        },
        {
          "stationId": "A0010232",
          "brandCode": "SOL",
          "name": "명품주유소",
          "priceWon": 2598,
          "latitude": 37.49409746137876,
          "longitude": 127.0456260865488
        },
        {
          "stationId": "A0009835",
          "brandCode": "SKE",
          "name": "오일프러스 셀프",
          "priceWon": 2470,
          "latitude": 37.48583639237537,
          "longitude": 127.03968545153442
        },
        {
          "stationId": "A0009869",
          "brandCode": "GSC",
          "name": "말죽거리주유소",
          "priceWon": 2396,
          "latitude": 37.48519480533853,
          "longitude": 127.04083944373005
        },
        {
          "stationId": "A0009917",
          "brandCode": "SKE",
          "name": "대신석유㈜서원주유소",
          "priceWon": 2388,
          "latitude": 37.49263818433361,
          "longitude": 127.00759237474401
        },
        {
          "stationId": "A0009901",
          "brandCode": "GSC",
          "name": "대성석유(주)연일주유소",
          "priceWon": 2425,
          "latitude": 37.48257930321935,
          "longitude": 127.01852201969501
        },
        {
          "stationId": "A0000915",
          "brandCode": "GSC",
          "name": "대성산업(주)직영 터미널(고속)주유소",
          "priceWon": 2460,
          "latitude": 37.50673138408668,
          "longitude": 127.0088196870799
        },
        {
          "stationId": "A0009738",
          "brandCode": "HDO",
          "name": "HD현대오일뱅크㈜직영 도곡셀프주유소",
          "priceWon": 2388,
          "latitude": 37.485461311680915,
          "longitude": 127.04321476202395
        },
        {
          "stationId": "A0009912",
          "brandCode": "GSC",
          "name": "(주)한미석유 서초주유소",
          "priceWon": 2395,
          "latitude": 37.48613464972351,
          "longitude": 127.01081362695857
        },
        {
          "stationId": "A0009890",
          "brandCode": "GSC",
          "name": "서초꽃마을주유소",
          "priceWon": 2395,
          "latitude": 37.486527793706955,
          "longitude": 127.00992555707809
        },
        {
          "stationId": "A0010229",
          "brandCode": "HDO",
          "name": "HD현대오일뱅크㈜직영 유진주유소",
          "priceWon": 2388,
          "latitude": 37.48325059688775,
          "longitude": 127.04267263037549
        },
        {
          "stationId": "A0000908",
          "brandCode": "GSC",
          "name": "지에스칼텍스(주)남서울주유소",
          "priceWon": 2468,
          "latitude": 37.51617043272249,
          "longitude": 127.01895008389643
        },
        {
          "stationId": "A0009886",
          "brandCode": "HDO",
          "name": "(주)선문에너지 중앙주유소",
          "priceWon": 2598,
          "latitude": 37.481533602923854,
          "longitude": 127.0422132427978
        },
        {
          "stationId": "A0009710",
          "brandCode": "SKE",
          "name": "SK논현주유소",
          "priceWon": 2794,
          "latitude": 37.5186353072114,
          "longitude": 127.02822914622308
        },
        {
          "stationId": "A0009707",
          "brandCode": "HDO",
          "name": "(주)제이제이네트웍스 제이제이주유소",
          "priceWon": 2970,
          "latitude": 37.51766924311855,
          "longitude": 127.03574658765868
        },
        {
          "stationId": "A0009906",
          "brandCode": "SOL",
          "name": "극동유화(주) 전당앞주유소",
          "priceWon": 2320,
          "latitude": 37.48038962755173,
          "longitude": 127.0120365363896
        },
        {
          "stationId": "A0009725",
          "brandCode": "HDO",
          "name": "HD현대오일뱅크㈜직영 신사현대주유소",
          "priceWon": 2635,
          "latitude": 37.51952626017845,
          "longitude": 127.02632942227552
        },
        {
          "stationId": "A0000916",
          "brandCode": "GSC",
          "name": "대성산업(주)직영 강남주유소",
          "priceWon": 2390,
          "latitude": 37.50462649678972,
          "longitude": 127.0017446358805
        },
        {
          "stationId": "A0009705",
          "brandCode": "SKE",
          "name": "대교셀프주유소",
          "priceWon": 2590,
          "latitude": 37.518881853042316,
          "longitude": 127.01927817510486
        },
        {
          "stationId": "A0011828",
          "brandCode": "SKE",
          "name": "양재주유소",
          "priceWon": 2470,
          "latitude": 37.47808450744414,
          "longitude": 127.03953407552308
        },
        {
          "stationId": "A0000919",
          "brandCode": "HDO",
          "name": "HD현대오일뱅크㈜직영 팔레스주유소",
          "priceWon": 2388,
          "latitude": 37.50016366657998,
          "longitude": 126.99920908227521
        },
        {
          "stationId": "A0001217",
          "brandCode": "GSC",
          "name": "(주)소모 쎈트럴주유소",
          "priceWon": 2584,
          "latitude": 37.5014206116053,
          "longitude": 127.05913923708243
        },
        {
          "stationId": "A0000863",
          "brandCode": "SKE",
          "name": "신반포주유소",
          "priceWon": 2410,
          "latitude": 37.49840993571359,
          "longitude": 126.99480533184506
        },
        {
          "stationId": "A0009919",
          "brandCode": "HDO",
          "name": "HD현대오일뱅크㈜직영 양재현대주유소",
          "priceWon": 2349,
          "latitude": 37.473582895492136,
          "longitude": 127.0397384288739
        },
        {
          "stationId": "A0009712",
          "brandCode": "SKE",
          "name": "대동석유 압구정주유소",
          "priceWon": 2665,
          "latitude": 37.525339815453265,
          "longitude": 127.0338536658803
        },
        {
          "stationId": "A0009715",
          "brandCode": "HDO",
          "name": "㈜새서울석유 새서울주유소",
          "priceWon": 2788,
          "latitude": 37.52594000739342,
          "longitude": 127.0263959065158
        },
        {
          "stationId": "A0011816",
          "brandCode": "SKE",
          "name": "태봉셀프주유소",
          "priceWon": 2385,
          "latitude": 37.468335563487926,
          "longitude": 127.02820186073195
        },
        {
          "stationId": "A0009724",
          "brandCode": "RTO",
          "name": "한양주유소",
          "priceWon": 2549,
          "latitude": 37.52888094551174,
          "longitude": 127.03407393594749
        },
        {
          "stationId": "A0001185",
          "brandCode": "GSC",
          "name": "지에스칼텍스㈜ 은마주유소",
          "priceWon": 2405,
          "latitude": 37.50007044925382,
          "longitude": 127.067284378199
        },
        {
          "stationId": "A0001214",
          "brandCode": "HDO",
          "name": "삼성동주유소",
          "priceWon": 2655,
          "latitude": 37.50985877325291,
          "longitude": 127.06511478788461
        },
        {
          "stationId": "A0000206",
          "brandCode": "SKE",
          "name": "(주)남경주유소",
          "priceWon": 2884,
          "latitude": 37.52248232278886,
          "longitude": 126.99925582547965
        },
        {
          "stationId": "A0000890",
          "brandCode": "GSC",
          "name": "지에스칼텍스(주)선천주유소",
          "priceWon": 2351,
          "latitude": 37.49499511703809,
          "longitude": 126.9831797433678
        },
        {
          "stationId": "A0000917",
          "brandCode": "HDO",
          "name": "방배주유소",
          "priceWon": 2399,
          "latitude": 37.4928537518744,
          "longitude": 126.98317430553207
        }
      ]
    },
    {
      "radiusMeters": 4000,
      "fuelType": "KEROSENE",
      "stations": [
        {
          "stationId": "A0009901",
          "brandCode": "GSC",
          "name": "대성석유(주)연일주유소",
          "priceWon": 1800,
          "latitude": 37.48257930321935,
          "longitude": 127.01852201969501
        },
        {
          "stationId": "A0000915",
          "brandCode": "GSC",
          "name": "대성산업(주)직영 터미널(고속)주유소",
          "priceWon": 1650,
          "latitude": 37.50673138408668,
          "longitude": 127.0088196870799
        },
        {
          "stationId": "A0010229",
          "brandCode": "HDO",
          "name": "HD현대오일뱅크㈜직영 유진주유소",
          "priceWon": 1715,
          "latitude": 37.48325059688775,
          "longitude": 127.04267263037549
        },
        {
          "stationId": "A0009886",
          "brandCode": "HDO",
          "name": "(주)선문에너지 중앙주유소",
          "priceWon": 1990,
          "latitude": 37.481533602923854,
          "longitude": 127.0422132427978
        },
        {
          "stationId": "A0009710",
          "brandCode": "SKE",
          "name": "SK논현주유소",
          "priceWon": 1850,
          "latitude": 37.5186353072114,
          "longitude": 127.02822914622308
        },
        {
          "stationId": "A0001217",
          "brandCode": "GSC",
          "name": "(주)소모 쎈트럴주유소",
          "priceWon": 1550,
          "latitude": 37.5014206116053,
          "longitude": 127.05913923708243
        },
        {
          "stationId": "A0009919",
          "brandCode": "HDO",
          "name": "HD현대오일뱅크㈜직영 양재현대주유소",
          "priceWon": 1715,
          "latitude": 37.473582895492136,
          "longitude": 127.0397384288739
        },
        {
          "stationId": "A0000206",
          "brandCode": "SKE",
          "name": "(주)남경주유소",
          "priceWon": 1960,
          "latitude": 37.52248232278886,
          "longitude": 126.99925582547965
        },
        {
          "stationId": "A0000917",
          "brandCode": "HDO",
          "name": "방배주유소",
          "priceWon": 1800,
          "latitude": 37.4928537518744,
          "longitude": 126.98317430553207
        }
      ]
    },
    {
      "radiusMeters": 4000,
      "fuelType": "LPG",
      "stations": [
        {
          "stationId": "A0009839",
          "brandCode": "SKE",
          "name": "(주)진양가스",
          "priceWon": 1101,
          "latitude": 37.490411101786314,
          "longitude": 127.03581273434159
        },
        {
          "stationId": "A0000904",
          "brandCode": "SKE",
          "name": "서초충전소",
          "priceWon": 1099,
          "latitude": 37.473196394663105,
          "longitude": 126.99530996401847
        }
      ]
    },
    {
      "radiusMeters": 5000,
      "fuelType": "GASOLINE",
      "stations": [
        {
          "stationId": "A0009907",
          "brandCode": "GSC",
          "name": "에너지플러스허브 삼방주유소",
          "priceWon": 2028,
          "latitude": 37.5038592059364,
          "longitude": 127.02317419164872
        },
        {
          "stationId": "A0010207",
          "brandCode": "SKE",
          "name": "SK서광주유소",
          "priceWon": 2040,
          "latitude": 37.494342850844376,
          "longitude": 127.03509278513955
        },
        {
          "stationId": "A0009905",
          "brandCode": "HDO",
          "name": "HD현대오일뱅크㈜직영 사평로주유소",
          "priceWon": 2006,
          "latitude": 37.50327593007212,
          "longitude": 127.02150768091882
        },
        {
          "stationId": "A0009913",
          "brandCode": "HDO",
          "name": "HD현대오일뱅크㈜직영 서초제일주유소",
          "priceWon": 2006,
          "latitude": 37.490559553508156,
          "longitude": 127.02260855568565
        },
        {
          "stationId": "A0009974",
          "brandCode": "GSC",
          "name": "지에스칼텍스㈜에너지플러스허브GS타워",
          "priceWon": 2028,
          "latitude": 37.50270179217919,
          "longitude": 127.03639187283768
        },
        {
          "stationId": "A0009061",
          "brandCode": "SOL",
          "name": "(주)선진도곡주유소",
          "priceWon": 2049,
          "latitude": 37.491199740537226,
          "longitude": 127.03749885029286
        },
        {
          "stationId": "A0009861",
          "brandCode": "SOL",
          "name": "오토테크주유소",
          "priceWon": 1991,
          "latitude": 37.48667479908557,
          "longitude": 127.02279401173456
        },
        {
          "stationId": "A0010236",
          "brandCode": "HDO",
          "name": "HD현대오일뱅크㈜직영 강남셀프주유소",
          "priceWon": 2009,
          "latitude": 37.49241175075716,
          "longitude": 127.04191650438408
        },
        {
          "stationId": "A0010269",
          "brandCode": "SOL",
          "name": "극동유화㈜ 개나리주유소",
          "priceWon": 2029,
          "latitude": 37.500922685879075,
          "longitude": 127.04311957576475
        },
        {
          "stationId": "A0006039",
          "brandCode": "SKE",
          "name": "(유)동하석유 힐탑셀프주유소",
          "priceWon": 2125,
          "latitude": 37.510737202013864,
          "longitude": 127.03273294779221
        },
        {
          "stationId": "A0000866",
          "brandCode": "GSC",
          "name": "반포그린주유소",
          "priceWon": 1995,
          "latitude": 37.503248089822094,
          "longitude": 127.01086975326696
        },
        {
          "stationId": "A0010232",
          "brandCode": "SOL",
          "name": "명품주유소",
          "priceWon": 2348,
          "latitude": 37.49409746137876,
          "longitude": 127.0456260865488
        },
        {
          "stationId": "A0009835",
          "brandCode": "SKE",
          "name": "오일프러스 셀프",
          "priceWon": 1978,
          "latitude": 37.48583639237537,
          "longitude": 127.03968545153442
        },
        {
          "stationId": "A0009869",
          "brandCode": "GSC",
          "name": "말죽거리주유소",
          "priceWon": 1996,
          "latitude": 37.48519480533853,
          "longitude": 127.04083944373005
        },
        {
          "stationId": "A0009917",
          "brandCode": "SKE",
          "name": "대신석유㈜서원주유소",
          "priceWon": 2098,
          "latitude": 37.49263818433361,
          "longitude": 127.00759237474401
        },
        {
          "stationId": "A0009901",
          "brandCode": "GSC",
          "name": "대성석유(주)연일주유소",
          "priceWon": 1996,
          "latitude": 37.48257930321935,
          "longitude": 127.01852201969501
        },
        {
          "stationId": "A0000915",
          "brandCode": "GSC",
          "name": "대성산업(주)직영 터미널(고속)주유소",
          "priceWon": 2013,
          "latitude": 37.50673138408668,
          "longitude": 127.0088196870799
        },
        {
          "stationId": "A0009738",
          "brandCode": "HDO",
          "name": "HD현대오일뱅크㈜직영 도곡셀프주유소",
          "priceWon": 2009,
          "latitude": 37.485461311680915,
          "longitude": 127.04321476202395
        },
        {
          "stationId": "A0009912",
          "brandCode": "GSC",
          "name": "(주)한미석유 서초주유소",
          "priceWon": 1995,
          "latitude": 37.48613464972351,
          "longitude": 127.01081362695857
        },
        {
          "stationId": "A0009890",
          "brandCode": "GSC",
          "name": "서초꽃마을주유소",
          "priceWon": 1995,
          "latitude": 37.486527793706955,
          "longitude": 127.00992555707809
        },
        {
          "stationId": "A0010229",
          "brandCode": "HDO",
          "name": "HD현대오일뱅크㈜직영 유진주유소",
          "priceWon": 2006,
          "latitude": 37.48325059688775,
          "longitude": 127.04267263037549
        },
        {
          "stationId": "A0000908",
          "brandCode": "GSC",
          "name": "지에스칼텍스(주)남서울주유소",
          "priceWon": 2038,
          "latitude": 37.51617043272249,
          "longitude": 127.01895008389643
        },
        {
          "stationId": "A0009886",
          "brandCode": "HDO",
          "name": "(주)선문에너지 중앙주유소",
          "priceWon": 2368,
          "latitude": 37.481533602923854,
          "longitude": 127.0422132427978
        },
        {
          "stationId": "A0009710",
          "brandCode": "SKE",
          "name": "SK논현주유소",
          "priceWon": 2440,
          "latitude": 37.5186353072114,
          "longitude": 127.02822914622308
        },
        {
          "stationId": "A0009707",
          "brandCode": "HDO",
          "name": "(주)제이제이네트웍스 제이제이주유소",
          "priceWon": 2598,
          "latitude": 37.51766924311855,
          "longitude": 127.03574658765868
        },
        {
          "stationId": "A0009906",
          "brandCode": "SOL",
          "name": "극동유화(주) 전당앞주유소",
          "priceWon": 1979,
          "latitude": 37.48038962755173,
          "longitude": 127.0120365363896
        },
        {
          "stationId": "A0009725",
          "brandCode": "HDO",
          "name": "HD현대오일뱅크㈜직영 신사현대주유소",
          "priceWon": 2021,
          "latitude": 37.51952626017845,
          "longitude": 127.02632942227552
        },
        {
          "stationId": "A0000916",
          "brandCode": "GSC",
          "name": "대성산업(주)직영 강남주유소",
          "priceWon": 1996,
          "latitude": 37.50462649678972,
          "longitude": 127.0017446358805
        },
        {
          "stationId": "A0009705",
          "brandCode": "SKE",
          "name": "대교셀프주유소",
          "priceWon": 2045,
          "latitude": 37.518881853042316,
          "longitude": 127.01927817510486
        },
        {
          "stationId": "A0011828",
          "brandCode": "SKE",
          "name": "양재주유소",
          "priceWon": 1998,
          "latitude": 37.47808450744414,
          "longitude": 127.03953407552308
        },
        {
          "stationId": "A0000919",
          "brandCode": "HDO",
          "name": "HD현대오일뱅크㈜직영 팔레스주유소",
          "priceWon": 2009,
          "latitude": 37.50016366657998,
          "longitude": 126.99920908227521
        },
        {
          "stationId": "A0001217",
          "brandCode": "GSC",
          "name": "(주)소모 쎈트럴주유소",
          "priceWon": 2334,
          "latitude": 37.5014206116053,
          "longitude": 127.05913923708243
        },
        {
          "stationId": "A0000863",
          "brandCode": "SKE",
          "name": "신반포주유소",
          "priceWon": 1999,
          "latitude": 37.49840993571359,
          "longitude": 126.99480533184506
        },
        {
          "stationId": "A0009919",
          "brandCode": "HDO",
          "name": "HD현대오일뱅크㈜직영 양재현대주유소",
          "priceWon": 2005,
          "latitude": 37.473582895492136,
          "longitude": 127.0397384288739
        },
        {
          "stationId": "A0009712",
          "brandCode": "SKE",
          "name": "대동석유 압구정주유소",
          "priceWon": 2125,
          "latitude": 37.525339815453265,
          "longitude": 127.0338536658803
        },
        {
          "stationId": "A0009715",
          "brandCode": "HDO",
          "name": "㈜새서울석유 새서울주유소",
          "priceWon": 2388,
          "latitude": 37.52594000739342,
          "longitude": 127.0263959065158
        },
        {
          "stationId": "A0011816",
          "brandCode": "SKE",
          "name": "태봉셀프주유소",
          "priceWon": 1995,
          "latitude": 37.468335563487926,
          "longitude": 127.02820186073195
        },
        {
          "stationId": "A0009881",
          "brandCode": "SOL",
          "name": "양재최고주유소",
          "priceWon": 1984,
          "latitude": 37.46715469172747,
          "longitude": 127.03469799826911
        },
        {
          "stationId": "A0009724",
          "brandCode": "RTO",
          "name": "한양주유소",
          "priceWon": 2049,
          "latitude": 37.52888094551174,
          "longitude": 127.03407393594749
        },
        {
          "stationId": "A0001185",
          "brandCode": "GSC",
          "name": "지에스칼텍스㈜ 은마주유소",
          "priceWon": 2048,
          "latitude": 37.50007044925382,
          "longitude": 127.067284378199
        },
        {
          "stationId": "A0001214",
          "brandCode": "HDO",
          "name": "삼성동주유소",
          "priceWon": 2165,
          "latitude": 37.50985877325291,
          "longitude": 127.06511478788461
        },
        {
          "stationId": "A0000206",
          "brandCode": "SKE",
          "name": "(주)남경주유소",
          "priceWon": 2398,
          "latitude": 37.52248232278886,
          "longitude": 126.99925582547965
        },
        {
          "stationId": "A0000890",
          "brandCode": "GSC",
          "name": "지에스칼텍스(주)선천주유소",
          "priceWon": 2004,
          "latitude": 37.49499511703809,
          "longitude": 126.9831797433678
        },
        {
          "stationId": "A0000917",
          "brandCode": "HDO",
          "name": "방배주유소",
          "priceWon": 1998,
          "latitude": 37.4928537518744,
          "longitude": 126.98317430553207
        },
        {
          "stationId": "A0009916",
          "brandCode": "SKE",
          "name": "대신석유(주)대우주유소",
          "priceWon": 1997,
          "latitude": 37.46269734335705,
          "longitude": 127.03772886669601
        },
        {
          "stationId": "A0000894",
          "brandCode": "SOL",
          "name": "㈜방배동주유소",
          "priceWon": 1994,
          "latitude": 37.478115906141774,
          "longitude": 126.98777415660429
        },
        {
          "stationId": "A0000426",
          "brandCode": "HDO",
          "name": "HD현대오일뱅크㈜직영 사당셀프주유소",
          "priceWon": 2007,
          "latitude": 37.483127835267936,
          "longitude": 126.98168389984431
        },
        {
          "stationId": "A0010172",
          "brandCode": "GSC",
          "name": "㈜삼표에너지 아시아주유소",
          "priceWon": 1994,
          "latitude": 37.5045953392429,
          "longitude": 127.07736786414712
        },
        {
          "stationId": "A0011826",
          "brandCode": "RTX",
          "name": "㈜에이치앤디이 만남의광장주유소",
          "priceWon": 1986,
          "latitude": 37.459611978031084,
          "longitude": 127.0430437276685
        },
        {
          "stationId": "A0000238",
          "brandCode": "SKE",
          "name": "한남지점",
          "priceWon": 2197,
          "latitude": 37.534767244112004,
          "longitude": 127.00609577481812
        },
        {
          "stationId": "A0009918",
          "brandCode": "SOL",
          "name": "서초우면산주유소",
          "priceWon": 1998,
          "latitude": 37.45755312356488,
          "longitude": 127.0162898827574
        },
        {
          "stationId": "A0000228",
          "brandCode": "SKE",
          "name": "에너비스",
          "priceWon": 2197,
          "latitude": 37.53602895178944,
          "longitude": 127.00612431237732
        },
        {
          "stationId": "A0010167",
          "brandCode": "GSC",
          "name": "삼화주유소",
          "priceWon": 1994,
          "latitude": 37.50663702160138,
          "longitude": 127.0810022740731
        },
        {
          "stationId": "A0001157",
          "brandCode": "HDO",
          "name": "㈜CW창원",
          "priceWon": 1995,
          "latitude": 37.47300610402982,
          "longitude": 126.9822031797441
        },
        {
          "stationId": "A0008210",
          "brandCode": "HDO",
          "name": "HD현대오일뱅크㈜직영 선암셀프주유소",
          "priceWon": 1990,
          "latitude": 37.45603131988075,
          "longitude": 127.01042580735673
        },
        {
          "stationId": "A0000928",
          "brandCode": "SKE",
          "name": "(주)대농석유 남태령주유소",
          "priceWon": 1995,
          "latitude": 37.466893679567086,
          "longitude": 126.98782467170535
        },
        {
          "stationId": "A0009392",
          "brandCode": "GSC",
          "name": "(주)옥수하이웨이스테이션",
          "priceWon": 2381,
          "latitude": 37.540935680741626,
          "longitude": 127.01139933997025
        }
      ]
    },
    {
      "radiusMeters": 5000,
      "fuelType": "DIESEL",
      "stations": [
        {
          "stationId": "A0009907",
          "brandCode": "GSC",
          "name": "에너지플러스허브 삼방주유소",
          "priceWon": 2022,
          "latitude": 37.5038592059364,
          "longitude": 127.02317419164872
        },
        {
          "stationId": "A0010207",
          "brandCode": "SKE",
          "name": "SK서광주유소",
          "priceWon": 1990,
          "latitude": 37.494342850844376,
          "longitude": 127.03509278513955
        },
        {
          "stationId": "A0009905",
          "brandCode": "HDO",
          "name": "HD현대오일뱅크㈜직영 사평로주유소",
          "priceWon": 2000,
          "latitude": 37.50327593007212,
          "longitude": 127.02150768091882
        },
        {
          "stationId": "A0009913",
          "brandCode": "HDO",
          "name": "HD현대오일뱅크㈜직영 서초제일주유소",
          "priceWon": 2000,
          "latitude": 37.490559553508156,
          "longitude": 127.02260855568565
        },
        {
          "stationId": "A0009974",
          "brandCode": "GSC",
          "name": "지에스칼텍스㈜에너지플러스허브GS타워",
          "priceWon": 2022,
          "latitude": 37.50270179217919,
          "longitude": 127.03639187283768
        },
        {
          "stationId": "A0009061",
          "brandCode": "SOL",
          "name": "(주)선진도곡주유소",
          "priceWon": 1988,
          "latitude": 37.491199740537226,
          "longitude": 127.03749885029286
        },
        {
          "stationId": "A0009861",
          "brandCode": "SOL",
          "name": "오토테크주유소",
          "priceWon": 1991,
          "latitude": 37.48667479908557,
          "longitude": 127.02279401173456
        },
        {
          "stationId": "A0010236",
          "brandCode": "HDO",
          "name": "HD현대오일뱅크㈜직영 강남셀프주유소",
          "priceWon": 1995,
          "latitude": 37.49241175075716,
          "longitude": 127.04191650438408
        },
        {
          "stationId": "A0010269",
          "brandCode": "SOL",
          "name": "극동유화㈜ 개나리주유소",
          "priceWon": 2015,
          "latitude": 37.500922685879075,
          "longitude": 127.04311957576475
        },
        {
          "stationId": "A0006039",
          "brandCode": "SKE",
          "name": "(유)동하석유 힐탑셀프주유소",
          "priceWon": 2095,
          "latitude": 37.510737202013864,
          "longitude": 127.03273294779221
        },
        {
          "stationId": "A0000866",
          "brandCode": "GSC",
          "name": "반포그린주유소",
          "priceWon": 1995,
          "latitude": 37.503248089822094,
          "longitude": 127.01086975326696
        },
        {
          "stationId": "A0010232",
          "brandCode": "SOL",
          "name": "명품주유소",
          "priceWon": 2257,
          "latitude": 37.49409746137876,
          "longitude": 127.0456260865488
        },
        {
          "stationId": "A0009835",
          "brandCode": "SKE",
          "name": "오일프러스 셀프",
          "priceWon": 1986,
          "latitude": 37.48583639237537,
          "longitude": 127.03968545153442
        },
        {
          "stationId": "A0009869",
          "brandCode": "GSC",
          "name": "말죽거리주유소",
          "priceWon": 1986,
          "latitude": 37.48519480533853,
          "longitude": 127.04083944373005
        },
        {
          "stationId": "A0009917",
          "brandCode": "SKE",
          "name": "대신석유㈜서원주유소",
          "priceWon": 2098,
          "latitude": 37.49263818433361,
          "longitude": 127.00759237474401
        },
        {
          "stationId": "A0009901",
          "brandCode": "GSC",
          "name": "대성석유(주)연일주유소",
          "priceWon": 1996,
          "latitude": 37.48257930321935,
          "longitude": 127.01852201969501
        },
        {
          "stationId": "A0000915",
          "brandCode": "GSC",
          "name": "대성산업(주)직영 터미널(고속)주유소",
          "priceWon": 1995,
          "latitude": 37.50673138408668,
          "longitude": 127.0088196870799
        },
        {
          "stationId": "A0009738",
          "brandCode": "HDO",
          "name": "HD현대오일뱅크㈜직영 도곡셀프주유소",
          "priceWon": 2000,
          "latitude": 37.485461311680915,
          "longitude": 127.04321476202395
        },
        {
          "stationId": "A0009912",
          "brandCode": "GSC",
          "name": "(주)한미석유 서초주유소",
          "priceWon": 1995,
          "latitude": 37.48613464972351,
          "longitude": 127.01081362695857
        },
        {
          "stationId": "A0009890",
          "brandCode": "GSC",
          "name": "서초꽃마을주유소",
          "priceWon": 1995,
          "latitude": 37.486527793706955,
          "longitude": 127.00992555707809
        },
        {
          "stationId": "A0010229",
          "brandCode": "HDO",
          "name": "HD현대오일뱅크㈜직영 유진주유소",
          "priceWon": 2000,
          "latitude": 37.48325059688775,
          "longitude": 127.04267263037549
        },
        {
          "stationId": "A0000908",
          "brandCode": "GSC",
          "name": "지에스칼텍스(주)남서울주유소",
          "priceWon": 2022,
          "latitude": 37.51617043272249,
          "longitude": 127.01895008389643
        },
        {
          "stationId": "A0009886",
          "brandCode": "HDO",
          "name": "(주)선문에너지 중앙주유소",
          "priceWon": 2198,
          "latitude": 37.481533602923854,
          "longitude": 127.0422132427978
        },
        {
          "stationId": "A0009710",
          "brandCode": "SKE",
          "name": "SK논현주유소",
          "priceWon": 2340,
          "latitude": 37.5186353072114,
          "longitude": 127.02822914622308
        },
        {
          "stationId": "A0009707",
          "brandCode": "HDO",
          "name": "(주)제이제이네트웍스 제이제이주유소",
          "priceWon": 2430,
          "latitude": 37.51766924311855,
          "longitude": 127.03574658765868
        },
        {
          "stationId": "A0009906",
          "brandCode": "SOL",
          "name": "극동유화(주) 전당앞주유소",
          "priceWon": 1979,
          "latitude": 37.48038962755173,
          "longitude": 127.0120365363896
        },
        {
          "stationId": "A0009725",
          "brandCode": "HDO",
          "name": "HD현대오일뱅크㈜직영 신사현대주유소",
          "priceWon": 2000,
          "latitude": 37.51952626017845,
          "longitude": 127.02632942227552
        },
        {
          "stationId": "A0000916",
          "brandCode": "GSC",
          "name": "대성산업(주)직영 강남주유소",
          "priceWon": 1990,
          "latitude": 37.50462649678972,
          "longitude": 127.0017446358805
        },
        {
          "stationId": "A0009705",
          "brandCode": "SKE",
          "name": "대교셀프주유소",
          "priceWon": 1990,
          "latitude": 37.518881853042316,
          "longitude": 127.01927817510486
        },
        {
          "stationId": "A0011828",
          "brandCode": "SKE",
          "name": "양재주유소",
          "priceWon": 1995,
          "latitude": 37.47808450744414,
          "longitude": 127.03953407552308
        },
        {
          "stationId": "A0000919",
          "brandCode": "HDO",
          "name": "HD현대오일뱅크㈜직영 팔레스주유소",
          "priceWon": 2000,
          "latitude": 37.50016366657998,
          "longitude": 126.99920908227521
        },
        {
          "stationId": "A0001217",
          "brandCode": "GSC",
          "name": "(주)소모 쎈트럴주유소",
          "priceWon": 2244,
          "latitude": 37.5014206116053,
          "longitude": 127.05913923708243
        },
        {
          "stationId": "A0000863",
          "brandCode": "SKE",
          "name": "신반포주유소",
          "priceWon": 2015,
          "latitude": 37.49840993571359,
          "longitude": 126.99480533184506
        },
        {
          "stationId": "A0009919",
          "brandCode": "HDO",
          "name": "HD현대오일뱅크㈜직영 양재현대주유소",
          "priceWon": 2000,
          "latitude": 37.473582895492136,
          "longitude": 127.0397384288739
        },
        {
          "stationId": "A0009712",
          "brandCode": "SKE",
          "name": "대동석유 압구정주유소",
          "priceWon": 2095,
          "latitude": 37.525339815453265,
          "longitude": 127.0338536658803
        },
        {
          "stationId": "A0009715",
          "brandCode": "HDO",
          "name": "㈜새서울석유 새서울주유소",
          "priceWon": 2298,
          "latitude": 37.52594000739342,
          "longitude": 127.0263959065158
        },
        {
          "stationId": "A0011816",
          "brandCode": "SKE",
          "name": "태봉셀프주유소",
          "priceWon": 1995,
          "latitude": 37.468335563487926,
          "longitude": 127.02820186073195
        },
        {
          "stationId": "A0009881",
          "brandCode": "SOL",
          "name": "양재최고주유소",
          "priceWon": 1984,
          "latitude": 37.46715469172747,
          "longitude": 127.03469799826911
        },
        {
          "stationId": "A0009724",
          "brandCode": "RTO",
          "name": "한양주유소",
          "priceWon": 2049,
          "latitude": 37.52888094551174,
          "longitude": 127.03407393594749
        },
        {
          "stationId": "A0001185",
          "brandCode": "GSC",
          "name": "지에스칼텍스㈜ 은마주유소",
          "priceWon": 2022,
          "latitude": 37.50007044925382,
          "longitude": 127.067284378199
        },
        {
          "stationId": "A0001214",
          "brandCode": "HDO",
          "name": "삼성동주유소",
          "priceWon": 2095,
          "latitude": 37.50985877325291,
          "longitude": 127.06511478788461
        },
        {
          "stationId": "A0000206",
          "brandCode": "SKE",
          "name": "(주)남경주유소",
          "priceWon": 2398,
          "latitude": 37.52248232278886,
          "longitude": 126.99925582547965
        },
        {
          "stationId": "A0000890",
          "brandCode": "GSC",
          "name": "지에스칼텍스(주)선천주유소",
          "priceWon": 2010,
          "latitude": 37.49499511703809,
          "longitude": 126.9831797433678
        },
        {
          "stationId": "A0000917",
          "brandCode": "HDO",
          "name": "방배주유소",
          "priceWon": 2009,
          "latitude": 37.4928537518744,
          "longitude": 126.98317430553207
        },
        {
          "stationId": "A0009916",
          "brandCode": "SKE",
          "name": "대신석유(주)대우주유소",
          "priceWon": 1997,
          "latitude": 37.46269734335705,
          "longitude": 127.03772886669601
        },
        {
          "stationId": "A0000894",
          "brandCode": "SOL",
          "name": "㈜방배동주유소",
          "priceWon": 1984,
          "latitude": 37.478115906141774,
          "longitude": 126.98777415660429
        },
        {
          "stationId": "A0000426",
          "brandCode": "HDO",
          "name": "HD현대오일뱅크㈜직영 사당셀프주유소",
          "priceWon": 1999,
          "latitude": 37.483127835267936,
          "longitude": 126.98168389984431
        },
        {
          "stationId": "A0010172",
          "brandCode": "GSC",
          "name": "㈜삼표에너지 아시아주유소",
          "priceWon": 1983,
          "latitude": 37.5045953392429,
          "longitude": 127.07736786414712
        },
        {
          "stationId": "A0011826",
          "brandCode": "RTX",
          "name": "㈜에이치앤디이 만남의광장주유소",
          "priceWon": 1986,
          "latitude": 37.459611978031084,
          "longitude": 127.0430437276685
        },
        {
          "stationId": "A0000238",
          "brandCode": "SKE",
          "name": "한남지점",
          "priceWon": 2187,
          "latitude": 37.534767244112004,
          "longitude": 127.00609577481812
        },
        {
          "stationId": "A0009918",
          "brandCode": "SOL",
          "name": "서초우면산주유소",
          "priceWon": 1987,
          "latitude": 37.45755312356488,
          "longitude": 127.0162898827574
        },
        {
          "stationId": "A0000228",
          "brandCode": "SKE",
          "name": "에너비스",
          "priceWon": 2187,
          "latitude": 37.53602895178944,
          "longitude": 127.00612431237732
        },
        {
          "stationId": "A0010167",
          "brandCode": "GSC",
          "name": "삼화주유소",
          "priceWon": 1983,
          "latitude": 37.50663702160138,
          "longitude": 127.0810022740731
        },
        {
          "stationId": "A0001157",
          "brandCode": "HDO",
          "name": "㈜CW창원",
          "priceWon": 1995,
          "latitude": 37.47300610402982,
          "longitude": 126.9822031797441
        },
        {
          "stationId": "A0008210",
          "brandCode": "HDO",
          "name": "HD현대오일뱅크㈜직영 선암셀프주유소",
          "priceWon": 1977,
          "latitude": 37.45603131988075,
          "longitude": 127.01042580735673
        },
        {
          "stationId": "A0000928",
          "brandCode": "SKE",
          "name": "(주)대농석유 남태령주유소",
          "priceWon": 1995,
          "latitude": 37.466893679567086,
          "longitude": 126.98782467170535
        },
        {
          "stationId": "A0009392",
          "brandCode": "GSC",
          "name": "(주)옥수하이웨이스테이션",
          "priceWon": 2291,
          "latitude": 37.540935680741626,
          "longitude": 127.01139933997025
        }
      ]
    },
    {
      "radiusMeters": 5000,
      "fuelType": "PREMIUM_GASOLINE",
      "stations": [
        {
          "stationId": "A0009907",
          "brandCode": "GSC",
          "name": "에너지플러스허브 삼방주유소",
          "priceWon": 2415,
          "latitude": 37.5038592059364,
          "longitude": 127.02317419164872
        },
        {
          "stationId": "A0010207",
          "brandCode": "SKE",
          "name": "SK서광주유소",
          "priceWon": 2500,
          "latitude": 37.494342850844376,
          "longitude": 127.03509278513955
        },
        {
          "stationId": "A0009905",
          "brandCode": "HDO",
          "name": "HD현대오일뱅크㈜직영 사평로주유소",
          "priceWon": 2388,
          "latitude": 37.50327593007212,
          "longitude": 127.02150768091882
        },
        {
          "stationId": "A0009913",
          "brandCode": "HDO",
          "name": "HD현대오일뱅크㈜직영 서초제일주유소",
          "priceWon": 2447,
          "latitude": 37.490559553508156,
          "longitude": 127.02260855568565
        },
        {
          "stationId": "A0009974",
          "brandCode": "GSC",
          "name": "지에스칼텍스㈜에너지플러스허브GS타워",
          "priceWon": 2538,
          "latitude": 37.50270179217919,
          "longitude": 127.03639187283768
        },
        {
          "stationId": "A0009061",
          "brandCode": "SOL",
          "name": "(주)선진도곡주유소",
          "priceWon": 2450,
          "latitude": 37.491199740537226,
          "longitude": 127.03749885029286
        },
        {
          "stationId": "A0009861",
          "brandCode": "SOL",
          "name": "오토테크주유소",
          "priceWon": 2291,
          "latitude": 37.48667479908557,
          "longitude": 127.02279401173456
        },
        {
          "stationId": "A0010236",
          "brandCode": "HDO",
          "name": "HD현대오일뱅크㈜직영 강남셀프주유소",
          "priceWon": 2388,
          "latitude": 37.49241175075716,
          "longitude": 127.04191650438408
        },
        {
          "stationId": "A0010269",
          "brandCode": "SOL",
          "name": "극동유화㈜ 개나리주유소",
          "priceWon": 2350,
          "latitude": 37.500922685879075,
          "longitude": 127.04311957576475
        },
        {
          "stationId": "A0006039",
          "brandCode": "SKE",
          "name": "(유)동하석유 힐탑셀프주유소",
          "priceWon": 2695,
          "latitude": 37.510737202013864,
          "longitude": 127.03273294779221
        },
        {
          "stationId": "A0000866",
          "brandCode": "GSC",
          "name": "반포그린주유소",
          "priceWon": 2395,
          "latitude": 37.503248089822094,
          "longitude": 127.01086975326696
        },
        {
          "stationId": "A0010232",
          "brandCode": "SOL",
          "name": "명품주유소",
          "priceWon": 2598,
          "latitude": 37.49409746137876,
          "longitude": 127.0456260865488
        },
        {
          "stationId": "A0009835",
          "brandCode": "SKE",
          "name": "오일프러스 셀프",
          "priceWon": 2470,
          "latitude": 37.48583639237537,
          "longitude": 127.03968545153442
        },
        {
          "stationId": "A0009869",
          "brandCode": "GSC",
          "name": "말죽거리주유소",
          "priceWon": 2396,
          "latitude": 37.48519480533853,
          "longitude": 127.04083944373005
        },
        {
          "stationId": "A0009917",
          "brandCode": "SKE",
          "name": "대신석유㈜서원주유소",
          "priceWon": 2388,
          "latitude": 37.49263818433361,
          "longitude": 127.00759237474401
        },
        {
          "stationId": "A0009901",
          "brandCode": "GSC",
          "name": "대성석유(주)연일주유소",
          "priceWon": 2425,
          "latitude": 37.48257930321935,
          "longitude": 127.01852201969501
        },
        {
          "stationId": "A0000915",
          "brandCode": "GSC",
          "name": "대성산업(주)직영 터미널(고속)주유소",
          "priceWon": 2460,
          "latitude": 37.50673138408668,
          "longitude": 127.0088196870799
        },
        {
          "stationId": "A0009738",
          "brandCode": "HDO",
          "name": "HD현대오일뱅크㈜직영 도곡셀프주유소",
          "priceWon": 2388,
          "latitude": 37.485461311680915,
          "longitude": 127.04321476202395
        },
        {
          "stationId": "A0009912",
          "brandCode": "GSC",
          "name": "(주)한미석유 서초주유소",
          "priceWon": 2395,
          "latitude": 37.48613464972351,
          "longitude": 127.01081362695857
        },
        {
          "stationId": "A0009890",
          "brandCode": "GSC",
          "name": "서초꽃마을주유소",
          "priceWon": 2395,
          "latitude": 37.486527793706955,
          "longitude": 127.00992555707809
        },
        {
          "stationId": "A0010229",
          "brandCode": "HDO",
          "name": "HD현대오일뱅크㈜직영 유진주유소",
          "priceWon": 2388,
          "latitude": 37.48325059688775,
          "longitude": 127.04267263037549
        },
        {
          "stationId": "A0000908",
          "brandCode": "GSC",
          "name": "지에스칼텍스(주)남서울주유소",
          "priceWon": 2468,
          "latitude": 37.51617043272249,
          "longitude": 127.01895008389643
        },
        {
          "stationId": "A0009886",
          "brandCode": "HDO",
          "name": "(주)선문에너지 중앙주유소",
          "priceWon": 2598,
          "latitude": 37.481533602923854,
          "longitude": 127.0422132427978
        },
        {
          "stationId": "A0009710",
          "brandCode": "SKE",
          "name": "SK논현주유소",
          "priceWon": 2794,
          "latitude": 37.5186353072114,
          "longitude": 127.02822914622308
        },
        {
          "stationId": "A0009707",
          "brandCode": "HDO",
          "name": "(주)제이제이네트웍스 제이제이주유소",
          "priceWon": 2970,
          "latitude": 37.51766924311855,
          "longitude": 127.03574658765868
        },
        {
          "stationId": "A0009906",
          "brandCode": "SOL",
          "name": "극동유화(주) 전당앞주유소",
          "priceWon": 2320,
          "latitude": 37.48038962755173,
          "longitude": 127.0120365363896
        },
        {
          "stationId": "A0009725",
          "brandCode": "HDO",
          "name": "HD현대오일뱅크㈜직영 신사현대주유소",
          "priceWon": 2635,
          "latitude": 37.51952626017845,
          "longitude": 127.02632942227552
        },
        {
          "stationId": "A0000916",
          "brandCode": "GSC",
          "name": "대성산업(주)직영 강남주유소",
          "priceWon": 2390,
          "latitude": 37.50462649678972,
          "longitude": 127.0017446358805
        },
        {
          "stationId": "A0009705",
          "brandCode": "SKE",
          "name": "대교셀프주유소",
          "priceWon": 2590,
          "latitude": 37.518881853042316,
          "longitude": 127.01927817510486
        },
        {
          "stationId": "A0011828",
          "brandCode": "SKE",
          "name": "양재주유소",
          "priceWon": 2470,
          "latitude": 37.47808450744414,
          "longitude": 127.03953407552308
        },
        {
          "stationId": "A0000919",
          "brandCode": "HDO",
          "name": "HD현대오일뱅크㈜직영 팔레스주유소",
          "priceWon": 2388,
          "latitude": 37.50016366657998,
          "longitude": 126.99920908227521
        },
        {
          "stationId": "A0001217",
          "brandCode": "GSC",
          "name": "(주)소모 쎈트럴주유소",
          "priceWon": 2584,
          "latitude": 37.5014206116053,
          "longitude": 127.05913923708243
        },
        {
          "stationId": "A0000863",
          "brandCode": "SKE",
          "name": "신반포주유소",
          "priceWon": 2410,
          "latitude": 37.49840993571359,
          "longitude": 126.99480533184506
        },
        {
          "stationId": "A0009919",
          "brandCode": "HDO",
          "name": "HD현대오일뱅크㈜직영 양재현대주유소",
          "priceWon": 2349,
          "latitude": 37.473582895492136,
          "longitude": 127.0397384288739
        },
        {
          "stationId": "A0009712",
          "brandCode": "SKE",
          "name": "대동석유 압구정주유소",
          "priceWon": 2665,
          "latitude": 37.525339815453265,
          "longitude": 127.0338536658803
        },
        {
          "stationId": "A0009715",
          "brandCode": "HDO",
          "name": "㈜새서울석유 새서울주유소",
          "priceWon": 2788,
          "latitude": 37.52594000739342,
          "longitude": 127.0263959065158
        },
        {
          "stationId": "A0011816",
          "brandCode": "SKE",
          "name": "태봉셀프주유소",
          "priceWon": 2385,
          "latitude": 37.468335563487926,
          "longitude": 127.02820186073195
        },
        {
          "stationId": "A0009724",
          "brandCode": "RTO",
          "name": "한양주유소",
          "priceWon": 2549,
          "latitude": 37.52888094551174,
          "longitude": 127.03407393594749
        },
        {
          "stationId": "A0001185",
          "brandCode": "GSC",
          "name": "지에스칼텍스㈜ 은마주유소",
          "priceWon": 2405,
          "latitude": 37.50007044925382,
          "longitude": 127.067284378199
        },
        {
          "stationId": "A0001214",
          "brandCode": "HDO",
          "name": "삼성동주유소",
          "priceWon": 2655,
          "latitude": 37.50985877325291,
          "longitude": 127.06511478788461
        },
        {
          "stationId": "A0000206",
          "brandCode": "SKE",
          "name": "(주)남경주유소",
          "priceWon": 2884,
          "latitude": 37.52248232278886,
          "longitude": 126.99925582547965
        },
        {
          "stationId": "A0000890",
          "brandCode": "GSC",
          "name": "지에스칼텍스(주)선천주유소",
          "priceWon": 2351,
          "latitude": 37.49499511703809,
          "longitude": 126.9831797433678
        },
        {
          "stationId": "A0000917",
          "brandCode": "HDO",
          "name": "방배주유소",
          "priceWon": 2399,
          "latitude": 37.4928537518744,
          "longitude": 126.98317430553207
        },
        {
          "stationId": "A0009916",
          "brandCode": "SKE",
          "name": "대신석유(주)대우주유소",
          "priceWon": 2297,
          "latitude": 37.46269734335705,
          "longitude": 127.03772886669601
        },
        {
          "stationId": "A0000894",
          "brandCode": "SOL",
          "name": "㈜방배동주유소",
          "priceWon": 2320,
          "latitude": 37.478115906141774,
          "longitude": 126.98777415660429
        },
        {
          "stationId": "A0000426",
          "brandCode": "HDO",
          "name": "HD현대오일뱅크㈜직영 사당셀프주유소",
          "priceWon": 2399,
          "latitude": 37.483127835267936,
          "longitude": 126.98168389984431
        },
        {
          "stationId": "A0010172",
          "brandCode": "GSC",
          "name": "㈜삼표에너지 아시아주유소",
          "priceWon": 2403,
          "latitude": 37.5045953392429,
          "longitude": 127.07736786414712
        },
        {
          "stationId": "A0000238",
          "brandCode": "SKE",
          "name": "한남지점",
          "priceWon": 2587,
          "latitude": 37.534767244112004,
          "longitude": 127.00609577481812
        },
        {
          "stationId": "A0009918",
          "brandCode": "SOL",
          "name": "서초우면산주유소",
          "priceWon": 2349,
          "latitude": 37.45755312356488,
          "longitude": 127.0162898827574
        },
        {
          "stationId": "A0000228",
          "brandCode": "SKE",
          "name": "에너비스",
          "priceWon": 2587,
          "latitude": 37.53602895178944,
          "longitude": 127.00612431237732
        },
        {
          "stationId": "A0010167",
          "brandCode": "GSC",
          "name": "삼화주유소",
          "priceWon": 2403,
          "latitude": 37.50663702160138,
          "longitude": 127.0810022740731
        },
        {
          "stationId": "A0001157",
          "brandCode": "HDO",
          "name": "㈜CW창원",
          "priceWon": 2415,
          "latitude": 37.47300610402982,
          "longitude": 126.9822031797441
        },
        {
          "stationId": "A0008210",
          "brandCode": "HDO",
          "name": "HD현대오일뱅크㈜직영 선암셀프주유소",
          "priceWon": 2276,
          "latitude": 37.45603131988075,
          "longitude": 127.01042580735673
        },
        {
          "stationId": "A0009392",
          "brandCode": "GSC",
          "name": "(주)옥수하이웨이스테이션",
          "priceWon": 2781,
          "latitude": 37.540935680741626,
          "longitude": 127.01139933997025
        }
      ]
    },
    {
      "radiusMeters": 5000,
      "fuelType": "KEROSENE",
      "stations": [
        {
          "stationId": "A0009901",
          "brandCode": "GSC",
          "name": "대성석유(주)연일주유소",
          "priceWon": 1800,
          "latitude": 37.48257930321935,
          "longitude": 127.01852201969501
        },
        {
          "stationId": "A0000915",
          "brandCode": "GSC",
          "name": "대성산업(주)직영 터미널(고속)주유소",
          "priceWon": 1650,
          "latitude": 37.50673138408668,
          "longitude": 127.0088196870799
        },
        {
          "stationId": "A0010229",
          "brandCode": "HDO",
          "name": "HD현대오일뱅크㈜직영 유진주유소",
          "priceWon": 1715,
          "latitude": 37.48325059688775,
          "longitude": 127.04267263037549
        },
        {
          "stationId": "A0009886",
          "brandCode": "HDO",
          "name": "(주)선문에너지 중앙주유소",
          "priceWon": 1990,
          "latitude": 37.481533602923854,
          "longitude": 127.0422132427978
        },
        {
          "stationId": "A0009710",
          "brandCode": "SKE",
          "name": "SK논현주유소",
          "priceWon": 1850,
          "latitude": 37.5186353072114,
          "longitude": 127.02822914622308
        },
        {
          "stationId": "A0001217",
          "brandCode": "GSC",
          "name": "(주)소모 쎈트럴주유소",
          "priceWon": 1550,
          "latitude": 37.5014206116053,
          "longitude": 127.05913923708243
        },